$GPGGA,0.00,3540.69938600,N,13945.65991600,E,1,05,2.87,+0.00,M,00.000,M,,*78
$GPGGA,0.10,3540.69938600,N,13945.65991600,E,1,05,2.87,+0.00,M,00.000,M,,*79
$GPGGA,0.20,3540.69938600,N,13945.65991600,E,1,05,2.87,+0.00,M,00.000,M,,*7A
$GPGGA,0.30,3540.69938600,N,13945.65991600,E,1,05,2.87,+0.00,M,00.000,M,,*7B
$GPGGA,0.40,3540.69938600,N,13945.65991600,E,1,05,2.87,+0.00,M,00.000,M,,*7C
$GPGGA,0.50,3540.69938600,N,13945.65991600,E,1,05,2.87,+0.00,M,00.000,M,,*7D
$GPGGA,0.60,3540.69938600,N,13945.65991600,E,1,05,2.87,+0.00,M,00.000,M,,*7E
$GPGGA,0.70,3540.69938600,N,13945.65991600,E,1,05,2.87,+0.00,M,00.000,M,,*7F
$GPGGA,0.80,3540.69938600,N,13945.65991600,E,1,05,2.87,+0.00,M,00.000,M,,*70
$GPGGA,0.90,3540.69938600,N,13945.65991600,E,1,05,2.87,+0.00,M,00.000,M,,*71
$GPGGA,1.00,3540.69938600,N,13945.65991600,E,1,05,2.87,+0.00,M,00.000,M,,*79
$GPGGA,1.10,3540.69938600,N,13945.65991600,E,1,05,2.87,+0.00,M,00.000,M,,*78
$GPGGA,1.20,3540.69938600,N,13945.65991600,E,1,05,2.87,+0.00,M,00.000,M,,*7B
$GPGGA,1.30,3540.69938600,N,13945.65991600,E,1,05,2.87,+0.00,M,00.000,M,,*7A
$GPGGA,1.40,3540.69938600,N,13945.65991600,E,1,05,2.87,+0.00,M,00.000,M,,*7D
$GPGGA,1.50,3540.69938600,N,13945.65991600,E,1,05,2.87,+0.00,M,00.000,M,,*7C
$GPGGA,1.60,3540.69938600,N,13945.65991600,E,1,05,2.87,+0.00,M,00.000,M,,*7F
$GPGGA,1.70,3540.69938600,N,13945.65991600,E,1,05,2.87,+0.00,M,00.000,M,,*7E
$GPGGA,1.80,3540.69938600,N,13945.65991600,E,1,05,2.87,+0.00,M,00.000,M,,*71
$GPGGA,1.90,3540.69938600,N,13945.65991600,E,1,05,2.87,+0.00,M,00.000,M,,*70
$GPGGA,2.00,3540.69938600,N,13945.65991600,E,1,05,2.87,+0.00,M,00.000,M,,*7A
$GPGGA,2.10,3540.69938600,N,13945.65991600,E,1,05,2.87,+0.00,M,00.000,M,,*7B
$GPGGA,2.20,3540.69938600,N,13945.65991600,E,1,05,2.87,+0.00,M,00.000,M,,*78
$GPGGA,2.30,3540.69938600,N,13945.65991600,E,1,05,2.87,+0.00,M,00.000,M,,*79
$GPGGA,2.40,3540.69938600,N,13945.65991600,E,1,05,2.87,+0.00,M,00.000,M,,*7E
$GPGGA,2.50,3540.69938600,N,13945.65991600,E,1,05,2.87,+0.00,M,00.000,M,,*7F
$GPGGA,2.60,3540.69938600,N,13945.65991600,E,1,05,2.87,+0.00,M,00.000,M,,*7C
$GPGGA,2.70,3540.69938600,N,13945.65991600,E,1,05,2.87,+0.00,M,00.000,M,,*7D
$GPGGA,2.80,3540.69938600,N,13945.65991600,E,1,05,2.87,+0.00,M,00.000,M,,*72
$GPGGA,2.90,3540.69938600,N,13945.65991600,E,1,05,2.87,+0.00,M,00.000,M,,*73
$GPGGA,3.00,3540.69938600,N,13945.65991600,E,1,05,2.87,+0.00,M,00.000,M,,*7B
$GPGGA,3.10,3540.69938600,N,13945.65991600,E,1,05,2.87,+0.00,M,00.000,M,,*7A
$GPGGA,3.20,3540.69938600,N,13945.65991600,E,1,05,2.87,+0.00,M,00.000,M,,*79
$GPGGA,3.30,3540.69938600,N,13945.65991600,E,1,05,2.87,+0.00,M,00.000,M,,*78
$GPGGA,3.40,3540.69938600,N,13945.65991600,E,1,05,2.87,+0.00,M,00.000,M,,*7F
$GPGGA,3.50,3540.69938600,N,13945.65991600,E,1,05,2.87,+0.00,M,00.000,M,,*7E
$GPGGA,3.60,3540.69938600,N,13945.65991600,E,1,05,2.87,+0.00,M,00.000,M,,*7D
$GPGGA,3.70,3540.69938600,N,13945.65991600,E,1,05,2.87,+0.00,M,00.000,M,,*7C
$GPGGA,3.80,3540.69938600,N,13945.65991600,E,1,05,2.87,+0.00,M,00.000,M,,*73
$GPGGA,3.90,3540.69938600,N,13945.65991600,E,1,05,2.87,+0.00,M,00.000,M,,*72
$GPGGA,4.00,3540.69938600,N,13945.65991600,E,1,05,2.87,+0.00,M,00.000,M,,*7C
$GPGGA,4.10,3540.69938600,N,13945.65991600,E,1,05,2.87,+0.00,M,00.000,M,,*7D
$GPGGA,4.20,3540.69938600,N,13945.65991600,E,1,05,2.87,+0.00,M,00.000,M,,*7E
$GPGGA,4.30,3540.69938600,N,13945.65991600,E,1,05,2.87,+0.00,M,00.000,M,,*7F
$GPGGA,4.40,3540.69938600,N,13945.65991600,E,1,05,2.87,+0.00,M,00.000,M,,*78
$GPGGA,4.50,3540.69938600,N,13945.65991600,E,1,05,2.87,+0.00,M,00.000,M,,*79
$GPGGA,4.60,3540.69938600,N,13945.65991600,E,1,05,2.87,+0.00,M,00.000,M,,*7A
$GPGGA,4.70,3540.69938600,N,13945.65991600,E,1,05,2.87,+0.00,M,00.000,M,,*7B
$GPGGA,4.80,3540.69938600,N,13945.65991600,E,1,05,2.87,+0.00,M,00.000,M,,*74
$GPGGA,4.90,3540.69938600,N,13945.65991600,E,1,05,2.87,+0.00,M,00.000,M,,*75
$GPGGA,5.00,3540.69938600,N,13945.65991600,E,1,05,2.87,+0.00,M,00.000,M,,*7D
$GPGGA,5.10,3540.69938600,N,13945.65991600,E,1,05,2.87,+0.00,M,00.000,M,,*7C
$GPGGA,5.20,3540.69938600,N,13945.65991600,E,1,05,2.87,+0.00,M,00.000,M,,*7F
$GPGGA,5.30,3540.69938600,N,13945.65991600,E,1,05,2.87,+0.00,M,00.000,M,,*7E
$GPGGA,5.40,3540.69938600,N,13945.65991600,E,1,05,2.87,+0.00,M,00.000,M,,*79
$GPGGA,5.50,3540.69938600,N,13945.65991600,E,1,05,2.87,+0.00,M,00.000,M,,*78
$GPGGA,5.60,3540.69938600,N,13945.65991600,E,1,05,2.87,+0.00,M,00.000,M,,*7B
$GPGGA,5.70,3540.69938600,N,13945.65991600,E,1,05,2.87,+0.00,M,00.000,M,,*7A
$GPGGA,5.80,3540.69938600,N,13945.65991600,E,1,05,2.87,+0.00,M,00.000,M,,*75
$GPGGA,5.90,3540.69938600,N,13945.65991600,E,1,05,2.87,+0.00,M,00.000,M,,*74
$GPGGA,6.00,3540.69938600,N,13945.65991600,E,1,05,2.87,+0.00,M,00.000,M,,*7E
$GPGGA,6.10,3540.69938600,N,13945.65991600,E,1,05,2.87,+0.00,M,00.000,M,,*7F
$GPGGA,6.20,3540.69938600,N,13945.65991600,E,1,05,2.87,+0.00,M,00.000,M,,*7C
$GPGGA,6.30,3540.69938600,N,13945.65991600,E,1,05,2.87,+0.00,M,00.000,M,,*7D
$GPGGA,6.40,3540.69938600,N,13945.65991600,E,1,05,2.87,+0.00,M,00.000,M,,*7A
$GPGGA,6.50,3540.69938600,N,13945.65991600,E,1,05,2.87,+0.00,M,00.000,M,,*7B
$GPGGA,6.60,3540.69938600,N,13945.65991600,E,1,05,2.87,+0.00,M,00.000,M,,*78
$GPGGA,6.70,3540.69938600,N,13945.65991600,E,1,05,2.87,+0.00,M,00.000,M,,*79
$GPGGA,6.80,3540.69938600,N,13945.65991600,E,1,05,2.87,+0.00,M,00.000,M,,*76
$GPGGA,6.90,3540.69938600,N,13945.65991600,E,1,05,2.87,+0.00,M,00.000,M,,*77
$GPGGA,7.00,3540.69938600,N,13945.65991600,E,1,05,2.87,+0.00,M,00.000,M,,*7F
$GPGGA,7.10,3540.69938600,N,13945.65991600,E,1,05,2.87,+0.00,M,00.000,M,,*7E
$GPGGA,7.20,3540.69938600,N,13945.65991600,E,1,05,2.87,+0.00,M,00.000,M,,*7D
$GPGGA,7.30,3540.69938600,N,13945.65991600,E,1,05,2.87,+0.00,M,00.000,M,,*7C
$GPGGA,7.40,3540.69938600,N,13945.65991600,E,1,05,2.87,+0.00,M,00.000,M,,*7B
$GPGGA,7.50,3540.69938600,N,13945.65991600,E,1,05,2.87,+0.00,M,00.000,M,,*7A
$GPGGA,7.60,3540.69938600,N,13945.65991600,E,1,05,2.87,+0.00,M,00.000,M,,*79
$GPGGA,7.70,3540.69938600,N,13945.65991600,E,1,05,2.87,+0.00,M,00.000,M,,*78
$GPGGA,7.80,3540.69938600,N,13945.65991600,E,1,05,2.87,+0.00,M,00.000,M,,*77
$GPGGA,7.90,3540.69938600,N,13945.65991600,E,1,05,2.87,+0.00,M,00.000,M,,*76
$GPGGA,8.00,3540.69938600,N,13945.65991600,E,1,05,2.87,+0.00,M,00.000,M,,*70
$GPGGA,8.10,3540.69938600,N,13945.65991600,E,1,05,2.87,+0.00,M,00.000,M,,*71
$GPGGA,8.20,3540.69938600,N,13945.65991600,E,1,05,2.87,+0.00,M,00.000,M,,*72
$GPGGA,8.30,3540.69938600,N,13945.65991600,E,1,05,2.87,+0.00,M,00.000,M,,*73
$GPGGA,8.40,3540.69938600,N,13945.65991600,E,1,05,2.87,+0.00,M,00.000,M,,*74
$GPGGA,8.50,3540.69938600,N,13945.65991600,E,1,05,2.87,+0.00,M,00.000,M,,*75
$GPGGA,8.60,3540.69938600,N,13945.65991600,E,1,05,2.87,+0.00,M,00.000,M,,*76
$GPGGA,8.70,3540.69938600,N,13945.65991600,E,1,05,2.87,+0.00,M,00.000,M,,*77
$GPGGA,8.80,3540.69938600,N,13945.65991600,E,1,05,2.87,+0.00,M,00.000,M,,*78
$GPGGA,8.90,3540.69938600,N,13945.65991600,E,1,05,2.87,+0.00,M,00.000,M,,*79
$GPGGA,9.00,3540.69938600,N,13945.65991600,E,1,05,2.87,+0.00,M,00.000,M,,*71
$GPGGA,9.10,3540.69938600,N,13945.65991600,E,1,05,2.87,+0.00,M,00.000,M,,*70
$GPGGA,9.20,3540.69938600,N,13945.65991600,E,1,05,2.87,+0.00,M,00.000,M,,*73
$GPGGA,9.30,3540.69938600,N,13945.65991600,E,1,05,2.87,+0.00,M,00.000,M,,*72
$GPGGA,9.40,3540.69938600,N,13945.65991600,E,1,05,2.87,+0.00,M,00.000,M,,*75
$GPGGA,9.50,3540.69938600,N,13945.65991600,E,1,05,2.87,+0.00,M,00.000,M,,*74
$GPGGA,9.60,3540.69938600,N,13945.65991600,E,1,05,2.87,+0.00,M,00.000,M,,*77
$GPGGA,9.70,3540.69938600,N,13945.65991600,E,1,05,2.87,+0.00,M,00.000,M,,*76
$GPGGA,9.80,3540.69938600,N,13945.65991600,E,1,05,2.87,+0.00,M,00.000,M,,*79
$GPGGA,9.90,3540.69938600,N,13945.65991600,E,1,05,2.87,+0.00,M,00.000,M,,*78
$GPGGA,10.00,3540.69938600,N,13945.65991600,E,1,05,2.87,+0.00,M,00.000,M,,*49
$GPGGA,10.10,3540.69938600,N,13945.65991600,E,1,05,2.87,+0.00,M,00.000,M,,*48
$GPGGA,10.20,3540.69938600,N,13945.65991600,E,1,05,2.87,+0.00,M,00.000,M,,*4B
$GPGGA,10.30,3540.69938600,N,13945.65991600,E,1,05,2.87,+0.00,M,00.000,M,,*4A
$GPGGA,10.40,3540.69938600,N,13945.65991600,E,1,05,2.87,+0.00,M,00.000,M,,*4D
$GPGGA,10.50,3540.69938600,N,13945.65991600,E,1,05,2.87,+0.00,M,00.000,M,,*4C
$GPGGA,10.60,3540.69938600,N,13945.65991600,E,1,05,2.87,+0.00,M,00.000,M,,*4F
$GPGGA,10.70,3540.69938600,N,13945.65991600,E,1,05,2.87,+0.00,M,00.000,M,,*4E
$GPGGA,10.80,3540.69938600,N,13945.65991600,E,1,05,2.87,+0.00,M,00.000,M,,*41
$GPGGA,10.90,3540.69938600,N,13945.65991600,E,1,05,2.87,+0.00,M,00.000,M,,*40
$GPGGA,11.00,3540.69938600,N,13945.65991600,E,1,05,2.87,+0.00,M,00.000,M,,*48
$GPGGA,11.10,3540.69938600,N,13945.65991600,E,1,05,2.87,+0.00,M,00.000,M,,*49
$GPGGA,11.20,3540.69938600,N,13945.65991600,E,1,05,2.87,+0.00,M,00.000,M,,*4A
$GPGGA,11.30,3540.69938600,N,13945.65991600,E,1,05,2.87,+0.00,M,00.000,M,,*4B
$GPGGA,11.40,3540.69938600,N,13945.65991600,E,1,05,2.87,+0.00,M,00.000,M,,*4C
$GPGGA,11.50,3540.69938600,N,13945.65991600,E,1,05,2.87,+0.00,M,00.000,M,,*4D
$GPGGA,11.60,3540.69938600,N,13945.65991600,E,1,05,2.87,+0.00,M,00.000,M,,*4E
$GPGGA,11.70,3540.69938600,N,13945.65991600,E,1,05,2.87,+0.00,M,00.000,M,,*4F
$GPGGA,11.80,3540.69938600,N,13945.65991600,E,1,05,2.87,+0.00,M,00.000,M,,*40
$GPGGA,11.90,3540.69938600,N,13945.65991600,E,1,05,2.87,+0.00,M,00.000,M,,*41
$GPGGA,12.00,3540.69938600,N,13945.65991600,E,1,05,2.87,+0.00,M,00.000,M,,*4B
$GPGGA,12.10,3540.69938600,N,13945.65991600,E,1,05,2.87,+0.00,M,00.000,M,,*4A
$GPGGA,12.20,3540.69938600,N,13945.65991600,E,1,05,2.87,+0.00,M,00.000,M,,*49
$GPGGA,12.30,3540.69938600,N,13945.65991600,E,1,05,2.87,+0.00,M,00.000,M,,*48
$GPGGA,12.40,3540.69938600,N,13945.65991600,E,1,05,2.87,+0.00,M,00.000,M,,*4F
$GPGGA,12.50,3540.69938600,N,13945.65991600,E,1,05,2.87,+0.00,M,00.000,M,,*4E
$GPGGA,12.60,3540.69938600,N,13945.65991600,E,1,05,2.87,+0.00,M,00.000,M,,*4D
$GPGGA,12.70,3540.69938600,N,13945.65991600,E,1,05,2.87,+0.00,M,00.000,M,,*4C
$GPGGA,12.80,3540.69938600,N,13945.65991600,E,1,05,2.87,+0.00,M,00.000,M,,*43
$GPGGA,12.90,3540.69938600,N,13945.65991600,E,1,05,2.87,+0.00,M,00.000,M,,*42
$GPGGA,13.00,3540.69938600,N,13945.65991600,E,1,05,2.87,+0.00,M,00.000,M,,*4A
$GPGGA,13.10,3540.69938600,N,13945.65991600,E,1,05,2.87,+0.00,M,00.000,M,,*4B
$GPGGA,13.20,3540.69938600,N,13945.65991600,E,1,05,2.87,+0.00,M,00.000,M,,*48
$GPGGA,13.30,3540.69938600,N,13945.65991600,E,1,05,2.87,+0.00,M,00.000,M,,*49
$GPGGA,13.40,3540.69938600,N,13945.65991600,E,1,05,2.87,+0.00,M,00.000,M,,*4E
$GPGGA,13.50,3540.69938600,N,13945.65991600,E,1,05,2.87,+0.00,M,00.000,M,,*4F
$GPGGA,13.60,3540.69938600,N,13945.65991600,E,1,05,2.87,+0.00,M,00.000,M,,*4C
$GPGGA,13.70,3540.69938600,N,13945.65991600,E,1,05,2.87,+0.00,M,00.000,M,,*4D
$GPGGA,13.80,3540.69938600,N,13945.65991600,E,1,05,2.87,+0.00,M,00.000,M,,*42
$GPGGA,13.90,3540.69938600,N,13945.65991600,E,1,05,2.87,+0.00,M,00.000,M,,*43
$GPGGA,14.00,3540.69938600,N,13945.65991600,E,1,05,2.87,+0.00,M,00.000,M,,*4D
$GPGGA,14.10,3540.69938600,N,13945.65991600,E,1,05,2.87,+0.00,M,00.000,M,,*4C
$GPGGA,14.20,3540.69938600,N,13945.65991600,E,1,05,2.87,+0.00,M,00.000,M,,*4F
$GPGGA,14.30,3540.69938600,N,13945.65991600,E,1,05,2.87,+0.00,M,00.000,M,,*4E
$GPGGA,14.40,3540.69938600,N,13945.65991600,E,1,05,2.87,+0.00,M,00.000,M,,*49
$GPGGA,14.50,3540.69938600,N,13945.65991600,E,1,05,2.87,+0.00,M,00.000,M,,*48
$GPGGA,14.60,3540.69938600,N,13945.65991600,E,1,05,2.87,+0.00,M,00.000,M,,*4B
$GPGGA,14.70,3540.69938600,N,13945.65991600,E,1,05,2.87,+0.00,M,00.000,M,,*4A
$GPGGA,14.80,3540.69938600,N,13945.65991600,E,1,05,2.87,+0.00,M,00.000,M,,*45
$GPGGA,14.90,3540.69938600,N,13945.65991600,E,1,05,2.87,+0.00,M,00.000,M,,*44
$GPGGA,15.00,3540.69938600,N,13945.65991600,E,1,05,2.87,+0.00,M,00.000,M,,*4C
$GPGGA,15.10,3540.69938600,N,13945.65991600,E,1,05,2.87,+0.00,M,00.000,M,,*4D
$GPGGA,15.20,3540.69938600,N,13945.65991600,E,1,05,2.87,+0.00,M,00.000,M,,*4E
$GPGGA,15.30,3540.69938600,N,13945.65991600,E,1,05,2.87,+0.00,M,00.000,M,,*4F
$GPGGA,15.40,3540.69938600,N,13945.65991600,E,1,05,2.87,+0.00,M,00.000,M,,*48
$GPGGA,15.50,3540.69938600,N,13945.65991600,E,1,05,2.87,+0.00,M,00.000,M,,*49
$GPGGA,15.60,3540.69938600,N,13945.65991600,E,1,05,2.87,+0.00,M,00.000,M,,*4A
$GPGGA,15.70,3540.69938600,N,13945.65991600,E,1,05,2.87,+0.00,M,00.000,M,,*4B
$GPGGA,15.80,3540.69938600,N,13945.65991600,E,1,05,2.87,+0.00,M,00.000,M,,*44
$GPGGA,15.90,3540.69938600,N,13945.65991600,E,1,05,2.87,+0.00,M,00.000,M,,*45
$GPGGA,16.00,3540.69938600,N,13945.65991600,E,1,05,2.87,+0.00,M,00.000,M,,*4F
$GPGGA,16.10,3540.69938600,N,13945.65991600,E,1,05,2.87,+0.00,M,00.000,M,,*4E
$GPGGA,16.20,3540.69938600,N,13945.65991600,E,1,05,2.87,+0.00,M,00.000,M,,*4D
$GPGGA,16.30,3540.69938600,N,13945.65991600,E,1,05,2.87,+0.00,M,00.000,M,,*4C
$GPGGA,16.40,3540.69938600,N,13945.65991600,E,1,05,2.87,+0.00,M,00.000,M,,*4B
$GPGGA,16.50,3540.69938600,N,13945.65991600,E,1,05,2.87,+0.00,M,00.000,M,,*4A
$GPGGA,16.60,3540.69938600,N,13945.65991600,E,1,05,2.87,+0.00,M,00.000,M,,*49
$GPGGA,16.70,3540.69938600,N,13945.65991600,E,1,05,2.87,+0.00,M,00.000,M,,*48
$GPGGA,16.80,3540.69938600,N,13945.65991600,E,1,05,2.87,+0.00,M,00.000,M,,*47
$GPGGA,16.90,3540.69938600,N,13945.65991600,E,1,05,2.87,+0.00,M,00.000,M,,*46
$GPGGA,17.00,3540.69938600,N,13945.65991600,E,1,05,2.87,+0.00,M,00.000,M,,*4E
$GPGGA,17.10,3540.69938600,N,13945.65991600,E,1,05,2.87,+0.00,M,00.000,M,,*4F
$GPGGA,17.20,3540.69938600,N,13945.65991600,E,1,05,2.87,+0.00,M,00.000,M,,*4C
$GPGGA,17.30,3540.69938600,N,13945.65991600,E,1,05,2.87,+0.00,M,00.000,M,,*4D
$GPGGA,17.40,3540.69938600,N,13945.65991600,E,1,05,2.87,+0.00,M,00.000,M,,*4A
$GPGGA,17.50,3540.69938600,N,13945.65991600,E,1,05,2.87,+0.00,M,00.000,M,,*4B
$GPGGA,17.60,3540.69938600,N,13945.65991600,E,1,05,2.87,+0.00,M,00.000,M,,*48
$GPGGA,17.70,3540.69938600,N,13945.65991600,E,1,05,2.87,+0.00,M,00.000,M,,*49
$GPGGA,17.80,3540.69938600,N,13945.65991600,E,1,05,2.87,+0.00,M,00.000,M,,*46
$GPGGA,17.90,3540.69938600,N,13945.65991600,E,1,05,2.87,+0.00,M,00.000,M,,*47
$GPGGA,18.00,3540.69938600,N,13945.65991600,E,1,05,2.87,+0.00,M,00.000,M,,*41
$GPGGA,18.10,3540.69938600,N,13945.65991600,E,1,05,2.87,+0.00,M,00.000,M,,*40
$GPGGA,18.20,3540.69938600,N,13945.65991600,E,1,05,2.87,+0.00,M,00.000,M,,*43
$GPGGA,18.30,3540.69938600,N,13945.65991600,E,1,05,2.87,+0.00,M,00.000,M,,*42
$GPGGA,18.40,3540.69938600,N,13945.65991600,E,1,05,2.87,+0.00,M,00.000,M,,*45
$GPGGA,18.50,3540.69938600,N,13945.65991600,E,1,05,2.87,+0.00,M,00.000,M,,*44
$GPGGA,18.60,3540.69938600,N,13945.65991600,E,1,05,2.87,+0.00,M,00.000,M,,*47
$GPGGA,18.70,3540.69938600,N,13945.65991600,E,1,05,2.87,+0.00,M,00.000,M,,*46
$GPGGA,18.80,3540.69938600,N,13945.65991600,E,1,05,2.87,+0.00,M,00.000,M,,*49
$GPGGA,18.90,3540.69938600,N,13945.65991600,E,1,05,2.87,+0.00,M,00.000,M,,*48
$GPGGA,19.00,3540.69938600,N,13945.65991600,E,1,05,2.87,+0.00,M,00.000,M,,*40
$GPGGA,19.10,3540.69938600,N,13945.65991600,E,1,05,2.87,+0.00,M,00.000,M,,*41
$GPGGA,19.20,3540.69938600,N,13945.65991600,E,1,05,2.87,+0.00,M,00.000,M,,*42
$GPGGA,19.30,3540.69938600,N,13945.65991600,E,1,05,2.87,+0.00,M,00.000,M,,*43
$GPGGA,19.40,3540.69938600,N,13945.65991600,E,1,05,2.87,+0.00,M,00.000,M,,*44
$GPGGA,19.50,3540.69938600,N,13945.65991600,E,1,05,2.87,+0.00,M,00.000,M,,*45
$GPGGA,19.60,3540.69938600,N,13945.65991600,E,1,05,2.87,+0.00,M,00.000,M,,*46
$GPGGA,19.70,3540.69938600,N,13945.65991600,E,1,05,2.87,+0.00,M,00.000,M,,*47
$GPGGA,19.80,3540.69938600,N,13945.65991600,E,1,05,2.87,+0.00,M,00.000,M,,*48
$GPGGA,19.90,3540.69938600,N,13945.65991600,E,1,05,2.87,+0.00,M,00.000,M,,*49
$GPGGA,20.00,3540.69938600,N,13945.65991600,E,1,05,2.87,+0.00,M,00.000,M,,*4A
$GPGGA,20.10,3540.69938600,N,13945.65991600,E,1,05,2.87,+0.00,M,00.000,M,,*4B
$GPGGA,20.20,3540.69938600,N,13945.65991600,E,1,05,2.87,+0.00,M,00.000,M,,*48
$GPGGA,20.30,3540.69938600,N,13945.65991600,E,1,05,2.87,+0.00,M,00.000,M,,*49
$GPGGA,20.40,3540.69938600,N,13945.65991600,E,1,05,2.87,+0.00,M,00.000,M,,*4E
$GPGGA,20.50,3540.69938600,N,13945.65991600,E,1,05,2.87,+0.00,M,00.000,M,,*4F
$GPGGA,20.60,3540.69938600,N,13945.65991600,E,1,05,2.87,+0.00,M,00.000,M,,*4C
$GPGGA,20.70,3540.69938600,N,13945.65991600,E,1,05,2.87,+0.00,M,00.000,M,,*4D
$GPGGA,20.80,3540.69938600,N,13945.65991600,E,1,05,2.87,+0.00,M,00.000,M,,*42
$GPGGA,20.90,3540.69938600,N,13945.65991600,E,1,05,2.87,+0.00,M,00.000,M,,*43
$GPGGA,21.00,3540.69938600,N,13945.65991600,E,1,05,2.87,+0.00,M,00.000,M,,*4B
$GPGGA,21.10,3540.69938600,N,13945.65991600,E,1,05,2.87,+0.00,M,00.000,M,,*4A
$GPGGA,21.20,3540.69938600,N,13945.65991600,E,1,05,2.87,+0.00,M,00.000,M,,*49
$GPGGA,21.30,3540.69938600,N,13945.65991600,E,1,05,2.87,+0.00,M,00.000,M,,*48
$GPGGA,21.40,3540.69938600,N,13945.65991600,E,1,05,2.87,+0.00,M,00.000,M,,*4F
$GPGGA,21.50,3540.69938600,N,13945.65991600,E,1,05,2.87,+0.00,M,00.000,M,,*4E
$GPGGA,21.60,3540.69938600,N,13945.65991600,E,1,05,2.87,+0.00,M,00.000,M,,*4D
$GPGGA,21.70,3540.69938600,N,13945.65991600,E,1,05,2.87,+0.00,M,00.000,M,,*4C
$GPGGA,21.80,3540.69938600,N,13945.65991600,E,1,05,2.87,+0.00,M,00.000,M,,*43
$GPGGA,21.90,3540.69938600,N,13945.65991600,E,1,05,2.87,+0.00,M,00.000,M,,*42
$GPGGA,22.00,3540.69938600,N,13945.65991600,E,1,05,2.87,+0.00,M,00.000,M,,*48
$GPGGA,22.10,3540.69938600,N,13945.65991600,E,1,05,2.87,+0.00,M,00.000,M,,*49
$GPGGA,22.20,3540.69938600,N,13945.65991600,E,1,05,2.87,+0.00,M,00.000,M,,*4A
$GPGGA,22.30,3540.69938600,N,13945.65991600,E,1,05,2.87,+0.00,M,00.000,M,,*4B
$GPGGA,22.40,3540.69938600,N,13945.65991600,E,1,05,2.87,+0.00,M,00.000,M,,*4C
$GPGGA,22.50,3540.69938600,N,13945.65991600,E,1,05,2.87,+0.00,M,00.000,M,,*4D
$GPGGA,22.60,3540.69938600,N,13945.65991600,E,1,05,2.87,+0.00,M,00.000,M,,*4E
$GPGGA,22.70,3540.69938600,N,13945.65991600,E,1,05,2.87,+0.00,M,00.000,M,,*4F
$GPGGA,22.80,3540.69938600,N,13945.65991600,E,1,05,2.87,+0.00,M,00.000,M,,*40
$GPGGA,22.90,3540.69938600,N,13945.65991600,E,1,05,2.87,+0.00,M,00.000,M,,*41
$GPGGA,23.00,3540.69938600,N,13945.65991600,E,1,05,2.87,+0.00,M,00.000,M,,*49
$GPGGA,23.10,3540.69938600,N,13945.65991600,E,1,05,2.87,+0.00,M,00.000,M,,*48
$GPGGA,23.20,3540.69938600,N,13945.65991600,E,1,05,2.87,+0.00,M,00.000,M,,*4B
$GPGGA,23.30,3540.69938600,N,13945.65991600,E,1,05,2.87,+0.00,M,00.000,M,,*4A
$GPGGA,23.40,3540.69938600,N,13945.65991600,E,1,05,2.87,+0.00,M,00.000,M,,*4D
$GPGGA,23.50,3540.69938600,N,13945.65991600,E,1,05,2.87,+0.00,M,00.000,M,,*4C
$GPGGA,23.60,3540.69938600,N,13945.65991600,E,1,05,2.87,+0.00,M,00.000,M,,*4F
$GPGGA,23.70,3540.69938600,N,13945.65991600,E,1,05,2.87,+0.00,M,00.000,M,,*4E
$GPGGA,23.80,3540.69938600,N,13945.65991600,E,1,05,2.87,+0.00,M,00.000,M,,*41
$GPGGA,23.90,3540.69938600,N,13945.65991600,E,1,05,2.87,+0.00,M,00.000,M,,*40
$GPGGA,24.00,3540.69938600,N,13945.65991600,E,1,05,2.87,+0.00,M,00.000,M,,*4E
$GPGGA,24.10,3540.69938600,N,13945.65991600,E,1,05,2.87,+0.00,M,00.000,M,,*4F
$GPGGA,24.20,3540.69938600,N,13945.65991600,E,1,05,2.87,+0.00,M,00.000,M,,*4C
$GPGGA,24.30,3540.69938600,N,13945.65991600,E,1,05,2.87,+0.00,M,00.000,M,,*4D
$GPGGA,24.40,3540.69938600,N,13945.65991600,E,1,05,2.87,+0.00,M,00.000,M,,*4A
$GPGGA,24.50,3540.69938600,N,13945.65991600,E,1,05,2.87,+0.00,M,00.000,M,,*4B
$GPGGA,24.60,3540.69938600,N,13945.65991600,E,1,05,2.87,+0.00,M,00.000,M,,*48
$GPGGA,24.70,3540.69938600,N,13945.65991600,E,1,05,2.87,+0.00,M,00.000,M,,*49
$GPGGA,24.80,3540.69938600,N,13945.65991600,E,1,05,2.87,+0.00,M,00.000,M,,*46
$GPGGA,24.90,3540.69938600,N,13945.65991600,E,1,05,2.87,+0.00,M,00.000,M,,*47
$GPGGA,25.00,3540.69938600,N,13945.65991600,E,1,05,2.87,+0.00,M,00.000,M,,*4F
$GPGGA,25.10,3540.69938600,N,13945.65991600,E,1,05,2.87,+0.00,M,00.000,M,,*4E
$GPGGA,25.20,3540.69938600,N,13945.65991600,E,1,05,2.87,+0.00,M,00.000,M,,*4D
$GPGGA,25.30,3540.69938600,N,13945.65991600,E,1,05,2.87,+0.00,M,00.000,M,,*4C
$GPGGA,25.40,3540.69938600,N,13945.65991600,E,1,05,2.87,+0.00,M,00.000,M,,*4B
$GPGGA,25.50,3540.69938600,N,13945.65991600,E,1,05,2.87,+0.00,M,00.000,M,,*4A
$GPGGA,25.60,3540.69938600,N,13945.65991600,E,1,05,2.87,+0.00,M,00.000,M,,*49
$GPGGA,25.70,3540.69938600,N,13945.65991600,E,1,05,2.87,+0.00,M,00.000,M,,*48
$GPGGA,25.80,3540.69938600,N,13945.65991600,E,1,05,2.87,+0.00,M,00.000,M,,*47
$GPGGA,25.90,3540.69938600,N,13945.65991600,E,1,05,2.87,+0.00,M,00.000,M,,*46
$GPGGA,26.00,3540.69938600,N,13945.65991600,E,1,05,2.87,+0.00,M,00.000,M,,*4C
$GPGGA,26.10,3540.69938600,N,13945.65991600,E,1,05,2.87,+0.00,M,00.000,M,,*4D
$GPGGA,26.20,3540.69938600,N,13945.65991600,E,1,05,2.87,+0.00,M,00.000,M,,*4E
$GPGGA,26.30,3540.69938600,N,13945.65991600,E,1,05,2.87,+0.00,M,00.000,M,,*4F
$GPGGA,26.40,3540.69938600,N,13945.65991600,E,1,05,2.87,+0.00,M,00.000,M,,*48
$GPGGA,26.50,3540.69938600,N,13945.65991600,E,1,05,2.87,+0.00,M,00.000,M,,*49
$GPGGA,26.60,3540.69938600,N,13945.65991600,E,1,05,2.87,+0.00,M,00.000,M,,*4A
$GPGGA,26.70,3540.69938600,N,13945.65991600,E,1,05,2.87,+0.00,M,00.000,M,,*4B
$GPGGA,26.80,3540.69938600,N,13945.65991600,E,1,05,2.87,+0.00,M,00.000,M,,*44
$GPGGA,26.90,3540.69938600,N,13945.65991600,E,1,05,2.87,+0.00,M,00.000,M,,*45
$GPGGA,27.00,3540.69938600,N,13945.65991600,E,1,05,2.87,+0.00,M,00.000,M,,*4D
$GPGGA,27.10,3540.69938600,N,13945.65991600,E,1,05,2.87,+0.00,M,00.000,M,,*4C
$GPGGA,27.20,3540.69938600,N,13945.65991600,E,1,05,2.87,+0.00,M,00.000,M,,*4F
$GPGGA,27.30,3540.69938600,N,13945.65991600,E,1,05,2.87,+0.00,M,00.000,M,,*4E
$GPGGA,27.40,3540.69938600,N,13945.65991600,E,1,05,2.87,+0.00,M,00.000,M,,*49
$GPGGA,27.50,3540.69938600,N,13945.65991600,E,1,05,2.87,+0.00,M,00.000,M,,*48
$GPGGA,27.60,3540.69938600,N,13945.65991600,E,1,05,2.87,+0.00,M,00.000,M,,*4B
$GPGGA,27.70,3540.69938600,N,13945.65991600,E,1,05,2.87,+0.00,M,00.000,M,,*4A
$GPGGA,27.80,3540.69938600,N,13945.65991600,E,1,05,2.87,+0.00,M,00.000,M,,*45
$GPGGA,27.90,3540.69938600,N,13945.65991600,E,1,05,2.87,+0.00,M,00.000,M,,*44
$GPGGA,28.00,3540.69938600,N,13945.65991600,E,1,05,2.87,+0.00,M,00.000,M,,*42
$GPGGA,28.10,3540.69938600,N,13945.65991600,E,1,05,2.87,+0.00,M,00.000,M,,*43
$GPGGA,28.20,3540.69938600,N,13945.65991600,E,1,05,2.87,+0.00,M,00.000,M,,*40
$GPGGA,28.30,3540.69938600,N,13945.65991600,E,1,05,2.87,+0.00,M,00.000,M,,*41
$GPGGA,28.40,3540.69938600,N,13945.65991600,E,1,05,2.87,+0.00,M,00.000,M,,*46
$GPGGA,28.50,3540.69938600,N,13945.65991600,E,1,05,2.87,+0.00,M,00.000,M,,*47
$GPGGA,28.60,3540.69938600,N,13945.65991600,E,1,05,2.87,+0.00,M,00.000,M,,*44
$GPGGA,28.70,3540.69938600,N,13945.65991600,E,1,05,2.87,+0.00,M,00.000,M,,*45
$GPGGA,28.80,3540.69938600,N,13945.65991600,E,1,05,2.87,+0.00,M,00.000,M,,*4A
$GPGGA,28.90,3540.69938600,N,13945.65991600,E,1,05,2.87,+0.00,M,00.000,M,,*4B
$GPGGA,29.00,3540.69938600,N,13945.65991600,E,1,05,2.87,+0.00,M,00.000,M,,*43
$GPGGA,29.10,3540.69938600,N,13945.65991600,E,1,05,2.87,+0.00,M,00.000,M,,*42
$GPGGA,29.20,3540.69938600,N,13945.65991600,E,1,05,2.87,+0.00,M,00.000,M,,*41
$GPGGA,29.30,3540.69938600,N,13945.65991600,E,1,05,2.87,+0.00,M,00.000,M,,*40
$GPGGA,29.40,3540.69938600,N,13945.65991600,E,1,05,2.87,+0.00,M,00.000,M,,*47
$GPGGA,29.50,3540.69938600,N,13945.65991600,E,1,05,2.87,+0.00,M,00.000,M,,*46
$GPGGA,29.60,3540.69938600,N,13945.65991600,E,1,05,2.87,+0.00,M,00.000,M,,*45
$GPGGA,29.70,3540.69938600,N,13945.65991600,E,1,05,2.87,+0.00,M,00.000,M,,*44
$GPGGA,29.80,3540.69938600,N,13945.65991600,E,1,05,2.87,+0.00,M,00.000,M,,*4B
$GPGGA,29.90,3540.69938600,N,13945.65991600,E,1,05,2.87,+0.00,M,00.000,M,,*4A
$GPGGA,30.00,3540.69938600,N,13945.65991600,E,1,05,2.87,+0.00,M,00.000,M,,*4B
$GPGGA,30.10,3540.69938600,N,13945.65991600,E,1,05,2.87,+0.00,M,00.000,M,,*4A
$GPGGA,30.20,3540.69938600,N,13945.65991600,E,1,05,2.87,+0.00,M,00.000,M,,*49
$GPGGA,30.30,3540.69938600,N,13945.65991600,E,1,05,2.87,+0.00,M,00.000,M,,*48
$GPGGA,30.40,3540.69938600,N,13945.65991600,E,1,05,2.87,+0.00,M,00.000,M,,*4F
$GPGGA,30.50,3540.69938600,N,13945.65991600,E,1,05,2.87,+0.00,M,00.000,M,,*4E
$GPGGA,30.60,3540.69938600,N,13945.65991600,E,1,05,2.87,+0.00,M,00.000,M,,*4D
$GPGGA,30.70,3540.69938600,N,13945.65991600,E,1,05,2.87,+0.00,M,00.000,M,,*4C
$GPGGA,30.80,3540.69938600,N,13945.65991600,E,1,05,2.87,+0.00,M,00.000,M,,*43
$GPGGA,30.90,3540.69938600,N,13945.65991600,E,1,05,2.87,+0.00,M,00.000,M,,*42
$GPGGA,31.00,3540.69938600,N,13945.65991600,E,1,05,2.87,+0.00,M,00.000,M,,*4A
$GPGGA,31.10,3540.69938600,N,13945.65991600,E,1,05,2.87,+0.00,M,00.000,M,,*4B
$GPGGA,31.20,3540.69938600,N,13945.65991600,E,1,05,2.87,+0.00,M,00.000,M,,*48
$GPGGA,31.30,3540.69938600,N,13945.65991600,E,1,05,2.87,+0.00,M,00.000,M,,*49
$GPGGA,31.40,3540.69938600,N,13945.65991600,E,1,05,2.87,+0.00,M,00.000,M,,*4E
$GPGGA,31.50,3540.69938600,N,13945.65991600,E,1,05,2.87,+0.00,M,00.000,M,,*4F
$GPGGA,31.60,3540.69938600,N,13945.65991600,E,1,05,2.87,+0.00,M,00.000,M,,*4C
$GPGGA,31.70,3540.69938600,N,13945.65991600,E,1,05,2.87,+0.00,M,00.000,M,,*4D
$GPGGA,31.80,3540.69938600,N,13945.65991600,E,1,05,2.87,+0.00,M,00.000,M,,*42
$GPGGA,31.90,3540.69938600,N,13945.65991600,E,1,05,2.87,+0.00,M,00.000,M,,*43
$GPGGA,32.00,3540.69938600,N,13945.65991600,E,1,05,2.87,+0.00,M,00.000,M,,*49
$GPGGA,32.10,3540.69938600,N,13945.65991600,E,1,05,2.87,+0.00,M,00.000,M,,*48
$GPGGA,32.20,3540.69938600,N,13945.65991600,E,1,05,2.87,+0.00,M,00.000,M,,*4B
$GPGGA,32.30,3540.69938600,N,13945.65991600,E,1,05,2.87,+0.00,M,00.000,M,,*4A
$GPGGA,32.40,3540.69938600,N,13945.65991600,E,1,05,2.87,+0.00,M,00.000,M,,*4D
$GPGGA,32.50,3540.69938600,N,13945.65991600,E,1,05,2.87,+0.00,M,00.000,M,,*4C
$GPGGA,32.60,3540.69938600,N,13945.65991600,E,1,05,2.87,+0.00,M,00.000,M,,*4F
$GPGGA,32.70,3540.69938600,N,13945.65991600,E,1,05,2.87,+0.00,M,00.000,M,,*4E
$GPGGA,32.80,3540.69938600,N,13945.65991600,E,1,05,2.87,+0.00,M,00.000,M,,*41
$GPGGA,32.90,3540.69938600,N,13945.65991600,E,1,05,2.87,+0.00,M,00.000,M,,*40
$GPGGA,33.00,3540.69938600,N,13945.65991600,E,1,05,2.87,+0.00,M,00.000,M,,*48
$GPGGA,33.10,3540.69938600,N,13945.65991600,E,1,05,2.87,+0.00,M,00.000,M,,*49
$GPGGA,33.20,3540.69938600,N,13945.65991600,E,1,05,2.87,+0.00,M,00.000,M,,*4A
$GPGGA,33.30,3540.69938600,N,13945.65991600,E,1,05,2.87,+0.00,M,00.000,M,,*4B
$GPGGA,33.40,3540.69938600,N,13945.65991600,E,1,05,2.87,+0.00,M,00.000,M,,*4C
$GPGGA,33.50,3540.69938600,N,13945.65991600,E,1,05,2.87,+0.00,M,00.000,M,,*4D
$GPGGA,33.60,3540.69938600,N,13945.65991600,E,1,05,2.87,+0.00,M,00.000,M,,*4E
$GPGGA,33.70,3540.69938600,N,13945.65991600,E,1,05,2.87,+0.00,M,00.000,M,,*4F
$GPGGA,33.80,3540.69938600,N,13945.65991600,E,1,05,2.87,+0.00,M,00.000,M,,*40
$GPGGA,33.90,3540.69938600,N,13945.65991600,E,1,05,2.87,+0.00,M,00.000,M,,*41
$GPGGA,34.00,3540.69938600,N,13945.65991600,E,1,05,2.87,+0.00,M,00.000,M,,*4F
$GPGGA,34.10,3540.69938600,N,13945.65991600,E,1,05,2.87,+0.00,M,00.000,M,,*4E
$GPGGA,34.20,3540.69938600,N,13945.65991600,E,1,05,2.87,+0.00,M,00.000,M,,*4D
$GPGGA,34.30,3540.69938600,N,13945.65991600,E,1,05,2.87,+0.00,M,00.000,M,,*4C
$GPGGA,34.40,3540.69938600,N,13945.65991600,E,1,05,2.87,+0.00,M,00.000,M,,*4B
$GPGGA,34.50,3540.69938600,N,13945.65991600,E,1,05,2.87,+0.00,M,00.000,M,,*4A
$GPGGA,34.60,3540.69938600,N,13945.65991600,E,1,05,2.87,+0.00,M,00.000,M,,*49
$GPGGA,34.70,3540.69938600,N,13945.65991600,E,1,05,2.87,+0.00,M,00.000,M,,*48
$GPGGA,34.80,3540.69938600,N,13945.65991600,E,1,05,2.87,+0.00,M,00.000,M,,*47
$GPGGA,34.90,3540.69938600,N,13945.65991600,E,1,05,2.87,+0.00,M,00.000,M,,*46
$GPGGA,35.00,3540.69938600,N,13945.65991600,E,1,05,2.87,+0.00,M,00.000,M,,*4E
$GPGGA,35.10,3540.69938600,N,13945.65991600,E,1,05,2.87,+0.00,M,00.000,M,,*4F
$GPGGA,35.20,3540.69938600,N,13945.65991600,E,1,05,2.87,+0.00,M,00.000,M,,*4C
$GPGGA,35.30,3540.69938600,N,13945.65991600,E,1,05,2.87,+0.00,M,00.000,M,,*4D
$GPGGA,35.40,3540.69938600,N,13945.65991600,E,1,05,2.87,+0.00,M,00.000,M,,*4A
$GPGGA,35.50,3540.69938600,N,13945.65991600,E,1,05,2.87,+0.00,M,00.000,M,,*4B
$GPGGA,35.60,3540.69938600,N,13945.65991600,E,1,05,2.87,+0.00,M,00.000,M,,*48
$GPGGA,35.70,3540.69938600,N,13945.65991600,E,1,05,2.87,+0.00,M,00.000,M,,*49
$GPGGA,35.80,3540.69938600,N,13945.65991600,E,1,05,2.87,+0.00,M,00.000,M,,*46
$GPGGA,35.90,3540.69938600,N,13945.65991600,E,1,05,2.87,+0.00,M,00.000,M,,*47
$GPGGA,36.00,3540.69938600,N,13945.65991600,E,1,05,2.87,+0.00,M,00.000,M,,*4D
$GPGGA,36.10,3540.69938600,N,13945.65991600,E,1,05,2.87,+0.00,M,00.000,M,,*4C
$GPGGA,36.20,3540.69938600,N,13945.65991600,E,1,05,2.87,+0.00,M,00.000,M,,*4F
$GPGGA,36.30,3540.69938600,N,13945.65991600,E,1,05,2.87,+0.00,M,00.000,M,,*4E
$GPGGA,36.40,3540.69938600,N,13945.65991600,E,1,05,2.87,+0.00,M,00.000,M,,*49
$GPGGA,36.50,3540.69938600,N,13945.65991600,E,1,05,2.87,+0.00,M,00.000,M,,*48
$GPGGA,36.60,3540.69938600,N,13945.65991600,E,1,05,2.87,+0.00,M,00.000,M,,*4B
$GPGGA,36.70,3540.69938600,N,13945.65991600,E,1,05,2.87,+0.00,M,00.000,M,,*4A
$GPGGA,36.80,3540.69938600,N,13945.65991600,E,1,05,2.87,+0.00,M,00.000,M,,*45
$GPGGA,36.90,3540.69938600,N,13945.65991600,E,1,05,2.87,+0.00,M,00.000,M,,*44
$GPGGA,37.00,3540.69938600,N,13945.65991600,E,1,05,2.87,+0.00,M,00.000,M,,*4C
$GPGGA,37.10,3540.69938600,N,13945.65991600,E,1,05,2.87,+0.00,M,00.000,M,,*4D
$GPGGA,37.20,3540.69938600,N,13945.65991600,E,1,05,2.87,+0.00,M,00.000,M,,*4E
$GPGGA,37.30,3540.69938600,N,13945.65991600,E,1,05,2.87,+0.00,M,00.000,M,,*4F
$GPGGA,37.40,3540.69938600,N,13945.65991600,E,1,05,2.87,+0.00,M,00.000,M,,*48
$GPGGA,37.50,3540.69938600,N,13945.65991600,E,1,05,2.87,+0.00,M,00.000,M,,*49
$GPGGA,37.60,3540.69938600,N,13945.65991600,E,1,05,2.87,+0.00,M,00.000,M,,*4A
$GPGGA,37.70,3540.69938600,N,13945.65991600,E,1,05,2.87,+0.00,M,00.000,M,,*4B
$GPGGA,37.80,3540.69938600,N,13945.65991600,E,1,05,2.87,+0.00,M,00.000,M,,*44
$GPGGA,37.90,3540.69938600,N,13945.65991600,E,1,05,2.87,+0.00,M,00.000,M,,*45
$GPGGA,38.00,3540.69938600,N,13945.65991600,E,1,05,2.87,+0.00,M,00.000,M,,*43
$GPGGA,38.10,3540.69938600,N,13945.65991600,E,1,05,2.87,+0.00,M,00.000,M,,*42
$GPGGA,38.20,3540.69938600,N,13945.65991600,E,1,05,2.87,+0.00,M,00.000,M,,*41
$GPGGA,38.30,3540.69938600,N,13945.65991600,E,1,05,2.87,+0.00,M,00.000,M,,*40
$GPGGA,38.40,3540.69938600,N,13945.65991600,E,1,05,2.87,+0.00,M,00.000,M,,*47
$GPGGA,38.50,3540.69938600,N,13945.65991600,E,1,05,2.87,+0.00,M,00.000,M,,*46
$GPGGA,38.60,3540.69938600,N,13945.65991600,E,1,05,2.87,+0.00,M,00.000,M,,*45
$GPGGA,38.70,3540.69938600,N,13945.65991600,E,1,05,2.87,+0.00,M,00.000,M,,*44
$GPGGA,38.80,3540.69938600,N,13945.65991600,E,1,05,2.87,+0.00,M,00.000,M,,*4B
$GPGGA,38.90,3540.69938600,N,13945.65991600,E,1,05,2.87,+0.00,M,00.000,M,,*4A
$GPGGA,39.00,3540.69938600,N,13945.65991600,E,1,05,2.87,+0.00,M,00.000,M,,*42
$GPGGA,39.10,3540.69938600,N,13945.65991600,E,1,05,2.87,+0.00,M,00.000,M,,*43
$GPGGA,39.20,3540.69938600,N,13945.65991600,E,1,05,2.87,+0.00,M,00.000,M,,*40
$GPGGA,39.30,3540.69938600,N,13945.65991600,E,1,05,2.87,+0.00,M,00.000,M,,*41
$GPGGA,39.40,3540.69938600,N,13945.65991600,E,1,05,2.87,+0.00,M,00.000,M,,*46
$GPGGA,39.50,3540.69938600,N,13945.65991600,E,1,05,2.87,+0.00,M,00.000,M,,*47
$GPGGA,39.60,3540.69938600,N,13945.65991600,E,1,05,2.87,+0.00,M,00.000,M,,*44
$GPGGA,39.70,3540.69938600,N,13945.65991600,E,1,05,2.87,+0.00,M,00.000,M,,*45
$GPGGA,39.80,3540.69938600,N,13945.65991600,E,1,05,2.87,+0.00,M,00.000,M,,*4A
$GPGGA,39.90,3540.69938600,N,13945.65991600,E,1,05,2.87,+0.00,M,00.000,M,,*4B
$GPGGA,40.00,3540.69938600,N,13945.65991600,E,1,05,2.87,+0.00,M,00.000,M,,*4C
$GPGGA,40.10,3540.69938600,N,13945.65991600,E,1,05,2.87,+0.00,M,00.000,M,,*4D
$GPGGA,40.20,3540.69938600,N,13945.65991600,E,1,05,2.87,+0.00,M,00.000,M,,*4E
$GPGGA,40.30,3540.69938600,N,13945.65991600,E,1,05,2.87,+0.00,M,00.000,M,,*4F
$GPGGA,40.40,3540.69938600,N,13945.65991600,E,1,05,2.87,+0.00,M,00.000,M,,*48
$GPGGA,40.50,3540.69938600,N,13945.65991600,E,1,05,2.87,+0.00,M,00.000,M,,*49
$GPGGA,40.60,3540.69938600,N,13945.65991600,E,1,05,2.87,+0.00,M,00.000,M,,*4A
$GPGGA,40.70,3540.69938600,N,13945.65991600,E,1,05,2.87,+0.00,M,00.000,M,,*4B
$GPGGA,40.80,3540.69938600,N,13945.65991600,E,1,05,2.87,+0.00,M,00.000,M,,*44
$GPGGA,40.90,3540.69938600,N,13945.65991600,E,1,05,2.87,+0.00,M,00.000,M,,*45
$GPGGA,41.00,3540.69938600,N,13945.65991600,E,1,05,2.87,+0.00,M,00.000,M,,*4D
$GPGGA,41.10,3540.69938600,N,13945.65991600,E,1,05,2.87,+0.00,M,00.000,M,,*4C
$GPGGA,41.20,3540.69938600,N,13945.65991600,E,1,05,2.87,+0.00,M,00.000,M,,*4F
$GPGGA,41.30,3540.69938600,N,13945.65991600,E,1,05,2.87,+0.00,M,00.000,M,,*4E
$GPGGA,41.40,3540.69938600,N,13945.65991600,E,1,05,2.87,+0.00,M,00.000,M,,*49
$GPGGA,41.50,3540.69938600,N,13945.65991600,E,1,05,2.87,+0.00,M,00.000,M,,*48
$GPGGA,41.60,3540.69938600,N,13945.65991600,E,1,05,2.87,+0.00,M,00.000,M,,*4B
$GPGGA,41.70,3540.69938600,N,13945.65991600,E,1,05,2.87,+0.00,M,00.000,M,,*4A
$GPGGA,41.80,3540.69938600,N,13945.65991600,E,1,05,2.87,+0.00,M,00.000,M,,*45
$GPGGA,41.90,3540.69938600,N,13945.65991600,E,1,05,2.87,+0.00,M,00.000,M,,*44
$GPGGA,42.00,3540.69938600,N,13945.65991600,E,1,05,2.87,+0.00,M,00.000,M,,*4E
$GPGGA,42.10,3540.69938600,N,13945.65991600,E,1,05,2.87,+0.00,M,00.000,M,,*4F
$GPGGA,42.20,3540.69938600,N,13945.65991600,E,1,05,2.87,+0.00,M,00.000,M,,*4C
$GPGGA,42.30,3540.69938600,N,13945.65991600,E,1,05,2.87,+0.00,M,00.000,M,,*4D
$GPGGA,42.40,3540.69938600,N,13945.65991600,E,1,05,2.87,+0.00,M,00.000,M,,*4A
$GPGGA,42.50,3540.69938600,N,13945.65991600,E,1,05,2.87,+0.00,M,00.000,M,,*4B
$GPGGA,42.60,3540.69938600,N,13945.65991600,E,1,05,2.87,+0.00,M,00.000,M,,*48
$GPGGA,42.70,3540.69938600,N,13945.65991600,E,1,05,2.87,+0.00,M,00.000,M,,*49
$GPGGA,42.80,3540.69938600,N,13945.65991600,E,1,05,2.87,+0.00,M,00.000,M,,*46
$GPGGA,42.90,3540.69938600,N,13945.65991600,E,1,05,2.87,+0.00,M,00.000,M,,*47
$GPGGA,43.00,3540.69938600,N,13945.65991600,E,1,05,2.87,+0.00,M,00.000,M,,*4F
$GPGGA,43.10,3540.69938600,N,13945.65991600,E,1,05,2.87,+0.00,M,00.000,M,,*4E
$GPGGA,43.20,3540.69938600,N,13945.65991600,E,1,05,2.87,+0.00,M,00.000,M,,*4D
$GPGGA,43.30,3540.69938600,N,13945.65991600,E,1,05,2.87,+0.00,M,00.000,M,,*4C
$GPGGA,43.40,3540.69938600,N,13945.65991600,E,1,05,2.87,+0.00,M,00.000,M,,*4B
$GPGGA,43.50,3540.69938600,N,13945.65991600,E,1,05,2.87,+0.00,M,00.000,M,,*4A
$GPGGA,43.60,3540.69938600,N,13945.65991600,E,1,05,2.87,+0.00,M,00.000,M,,*49
$GPGGA,43.70,3540.69938600,N,13945.65991600,E,1,05,2.87,+0.00,M,00.000,M,,*48
$GPGGA,43.80,3540.69938600,N,13945.65991600,E,1,05,2.87,+0.00,M,00.000,M,,*47
$GPGGA,43.90,3540.69938600,N,13945.65991600,E,1,05,2.87,+0.00,M,00.000,M,,*46
$GPGGA,44.00,3540.69938600,N,13945.65991600,E,1,05,2.87,+0.00,M,00.000,M,,*48
$GPGGA,44.10,3540.69938600,N,13945.65991600,E,1,05,2.87,+0.00,M,00.000,M,,*49
$GPGGA,44.20,3540.69938600,N,13945.65991600,E,1,05,2.87,+0.00,M,00.000,M,,*4A
$GPGGA,44.30,3540.69938600,N,13945.65991600,E,1,05,2.87,+0.00,M,00.000,M,,*4B
$GPGGA,44.40,3540.69938600,N,13945.65991600,E,1,05,2.87,+0.00,M,00.000,M,,*4C
$GPGGA,44.50,3540.69938600,N,13945.65991600,E,1,05,2.87,+0.00,M,00.000,M,,*4D
$GPGGA,44.60,3540.69938600,N,13945.65991600,E,1,05,2.87,+0.00,M,00.000,M,,*4E
$GPGGA,44.70,3540.69938600,N,13945.65991600,E,1,05,2.87,+0.00,M,00.000,M,,*4F
$GPGGA,44.80,3540.69938600,N,13945.65991600,E,1,05,2.87,+0.00,M,00.000,M,,*40
$GPGGA,44.90,3540.69938600,N,13945.65991600,E,1,05,2.87,+0.00,M,00.000,M,,*41
$GPGGA,45.00,3540.69938600,N,13945.65991600,E,1,05,2.87,+0.00,M,00.000,M,,*49
$GPGGA,45.10,3540.69938600,N,13945.65991600,E,1,05,2.87,+0.00,M,00.000,M,,*48
$GPGGA,45.20,3540.69938600,N,13945.65991600,E,1,05,2.87,+0.00,M,00.000,M,,*4B
$GPGGA,45.30,3540.69938600,N,13945.65991600,E,1,05,2.87,+0.00,M,00.000,M,,*4A
$GPGGA,45.40,3540.69938600,N,13945.65991600,E,1,05,2.87,+0.00,M,00.000,M,,*4D
$GPGGA,45.50,3540.69938600,N,13945.65991600,E,1,05,2.87,+0.00,M,00.000,M,,*4C
$GPGGA,45.60,3540.69938600,N,13945.65991600,E,1,05,2.87,+0.00,M,00.000,M,,*4F
$GPGGA,45.70,3540.69938600,N,13945.65991600,E,1,05,2.87,+0.00,M,00.000,M,,*4E
$GPGGA,45.80,3540.69938600,N,13945.65991600,E,1,05,2.87,+0.00,M,00.000,M,,*41
$GPGGA,45.90,3540.69938600,N,13945.65991600,E,1,05,2.87,+0.00,M,00.000,M,,*40
$GPGGA,46.00,3540.69938600,N,13945.65991600,E,1,05,2.87,+0.00,M,00.000,M,,*4A
$GPGGA,46.10,3540.69938600,N,13945.65991600,E,1,05,2.87,+0.00,M,00.000,M,,*4B
$GPGGA,46.20,3540.69938600,N,13945.65991600,E,1,05,2.87,+0.00,M,00.000,M,,*48
$GPGGA,46.30,3540.69938600,N,13945.65991600,E,1,05,2.87,+0.00,M,00.000,M,,*49
$GPGGA,46.40,3540.69938600,N,13945.65991600,E,1,05,2.87,+0.00,M,00.000,M,,*4E
$GPGGA,46.50,3540.69938600,N,13945.65991600,E,1,05,2.87,+0.00,M,00.000,M,,*4F
$GPGGA,46.60,3540.69938600,N,13945.65991600,E,1,05,2.87,+0.00,M,00.000,M,,*4C
$GPGGA,46.70,3540.69938600,N,13945.65991600,E,1,05,2.87,+0.00,M,00.000,M,,*4D
$GPGGA,46.80,3540.69938600,N,13945.65991600,E,1,05,2.87,+0.00,M,00.000,M,,*42
$GPGGA,46.90,3540.69938600,N,13945.65991600,E,1,05,2.87,+0.00,M,00.000,M,,*43
$GPGGA,47.00,3540.69938600,N,13945.65991600,E,1,05,2.87,+0.00,M,00.000,M,,*4B
$GPGGA,47.10,3540.69938600,N,13945.65991600,E,1,05,2.87,+0.00,M,00.000,M,,*4A
$GPGGA,47.20,3540.69938600,N,13945.65991600,E,1,05,2.87,+0.00,M,00.000,M,,*49
$GPGGA,47.30,3540.69938600,N,13945.65991600,E,1,05,2.87,+0.00,M,00.000,M,,*48
$GPGGA,47.40,3540.69938600,N,13945.65991600,E,1,05,2.87,+0.00,M,00.000,M,,*4F
$GPGGA,47.50,3540.69938600,N,13945.65991600,E,1,05,2.87,+0.00,M,00.000,M,,*4E
$GPGGA,47.60,3540.69938600,N,13945.65991600,E,1,05,2.87,+0.00,M,00.000,M,,*4D
$GPGGA,47.70,3540.69938600,N,13945.65991600,E,1,05,2.87,+0.00,M,00.000,M,,*4C
$GPGGA,47.80,3540.69938600,N,13945.65991600,E,1,05,2.87,+0.00,M,00.000,M,,*43
$GPGGA,47.90,3540.69938600,N,13945.65991600,E,1,05,2.87,+0.00,M,00.000,M,,*42
$GPGGA,48.00,3540.69938600,N,13945.65991600,E,1,05,2.87,+0.00,M,00.000,M,,*44
$GPGGA,48.10,3540.69938600,N,13945.65991600,E,1,05,2.87,+0.00,M,00.000,M,,*45
$GPGGA,48.20,3540.69938600,N,13945.65991600,E,1,05,2.87,+0.00,M,00.000,M,,*46
$GPGGA,48.30,3540.69938600,N,13945.65991600,E,1,05,2.87,+0.00,M,00.000,M,,*47
$GPGGA,48.40,3540.69938600,N,13945.65991600,E,1,05,2.87,+0.00,M,00.000,M,,*40
$GPGGA,48.50,3540.69938600,N,13945.65991600,E,1,05,2.87,+0.00,M,00.000,M,,*41
$GPGGA,48.60,3540.69938600,N,13945.65991600,E,1,05,2.87,+0.00,M,00.000,M,,*42
$GPGGA,48.70,3540.69938600,N,13945.65991600,E,1,05,2.87,+0.00,M,00.000,M,,*43
$GPGGA,48.80,3540.69938600,N,13945.65991600,E,1,05,2.87,+0.00,M,00.000,M,,*4C
$GPGGA,48.90,3540.69938600,N,13945.65991600,E,1,05,2.87,+0.00,M,00.000,M,,*4D
$GPGGA,49.00,3540.69938600,N,13945.65991600,E,1,05,2.87,+0.00,M,00.000,M,,*45
$GPGGA,49.10,3540.69938600,N,13945.65991600,E,1,05,2.87,+0.00,M,00.000,M,,*44
$GPGGA,49.20,3540.69938600,N,13945.65991600,E,1,05,2.87,+0.00,M,00.000,M,,*47
$GPGGA,49.30,3540.69938600,N,13945.65991600,E,1,05,2.87,+0.00,M,00.000,M,,*46
$GPGGA,49.40,3540.69938600,N,13945.65991600,E,1,05,2.87,+0.00,M,00.000,M,,*41
$GPGGA,49.50,3540.69938600,N,13945.65991600,E,1,05,2.87,+0.00,M,00.000,M,,*40
$GPGGA,49.60,3540.69938600,N,13945.65991600,E,1,05,2.87,+0.00,M,00.000,M,,*43
$GPGGA,49.70,3540.69938600,N,13945.65991600,E,1,05,2.87,+0.00,M,00.000,M,,*42
$GPGGA,49.80,3540.69938600,N,13945.65991600,E,1,05,2.87,+0.00,M,00.000,M,,*4D
$GPGGA,49.90,3540.69938600,N,13945.65991600,E,1,05,2.87,+0.00,M,00.000,M,,*4C
$GPGGA,50.00,3540.69938600,N,13945.65991600,E,1,05,2.87,+0.00,M,00.000,M,,*4D
$GPGGA,50.10,3540.69938600,N,13945.65991600,E,1,05,2.87,+0.00,M,00.000,M,,*4C
$GPGGA,50.20,3540.69938600,N,13945.65991600,E,1,05,2.87,+0.00,M,00.000,M,,*4F
$GPGGA,50.30,3540.69938600,N,13945.65991600,E,1,05,2.87,+0.00,M,00.000,M,,*4E
$GPGGA,50.40,3540.69938600,N,13945.65991600,E,1,05,2.87,+0.00,M,00.000,M,,*49
$GPGGA,50.50,3540.69938600,N,13945.65991600,E,1,05,2.87,+0.00,M,00.000,M,,*48
$GPGGA,50.60,3540.69938600,N,13945.65991600,E,1,05,2.87,+0.00,M,00.000,M,,*4B
$GPGGA,50.70,3540.69938600,N,13945.65991600,E,1,05,2.87,+0.00,M,00.000,M,,*4A
$GPGGA,50.80,3540.69938600,N,13945.65991600,E,1,05,2.87,+0.00,M,00.000,M,,*45
$GPGGA,50.90,3540.69938600,N,13945.65991600,E,1,05,2.87,+0.00,M,00.000,M,,*44
$GPGGA,51.00,3540.69938600,N,13945.65991600,E,1,05,2.87,+0.00,M,00.000,M,,*4C
$GPGGA,51.10,3540.69938600,N,13945.65991600,E,1,05,2.87,+0.00,M,00.000,M,,*4D
$GPGGA,51.20,3540.69938600,N,13945.65991600,E,1,05,2.87,+0.00,M,00.000,M,,*4E
$GPGGA,51.30,3540.69938600,N,13945.65991600,E,1,05,2.87,+0.00,M,00.000,M,,*4F
$GPGGA,51.40,3540.69938600,N,13945.65991600,E,1,05,2.87,+0.00,M,00.000,M,,*48
$GPGGA,51.50,3540.69938600,N,13945.65991600,E,1,05,2.87,+0.00,M,00.000,M,,*49
$GPGGA,51.60,3540.69938600,N,13945.65991600,E,1,05,2.87,+0.00,M,00.000,M,,*4A
$GPGGA,51.70,3540.69938600,N,13945.65991600,E,1,05,2.87,+0.00,M,00.000,M,,*4B
$GPGGA,51.80,3540.69938600,N,13945.65991600,E,1,05,2.87,+0.00,M,00.000,M,,*44
$GPGGA,51.90,3540.69938600,N,13945.65991600,E,1,05,2.87,+0.00,M,00.000,M,,*45
$GPGGA,52.00,3540.69938600,N,13945.65991600,E,1,05,2.87,+0.00,M,00.000,M,,*4F
$GPGGA,52.10,3540.69938600,N,13945.65991600,E,1,05,2.87,+0.00,M,00.000,M,,*4E
$GPGGA,52.20,3540.69938600,N,13945.65991600,E,1,05,2.87,+0.00,M,00.000,M,,*4D
$GPGGA,52.30,3540.69938600,N,13945.65991600,E,1,05,2.87,+0.00,M,00.000,M,,*4C
$GPGGA,52.40,3540.69938600,N,13945.65991600,E,1,05,2.87,+0.00,M,00.000,M,,*4B
$GPGGA,52.50,3540.69938600,N,13945.65991600,E,1,05,2.87,+0.00,M,00.000,M,,*4A
$GPGGA,52.60,3540.69938600,N,13945.65991600,E,1,05,2.87,+0.00,M,00.000,M,,*49
$GPGGA,52.70,3540.69938600,N,13945.65991600,E,1,05,2.87,+0.00,M,00.000,M,,*48
$GPGGA,52.80,3540.69938600,N,13945.65991600,E,1,05,2.87,+0.00,M,00.000,M,,*47
$GPGGA,52.90,3540.69938600,N,13945.65991600,E,1,05,2.87,+0.00,M,00.000,M,,*46
$GPGGA,53.00,3540.69938600,N,13945.65991600,E,1,05,2.87,+0.00,M,00.000,M,,*4E
$GPGGA,53.10,3540.69938600,N,13945.65991600,E,1,05,2.87,+0.00,M,00.000,M,,*4F
$GPGGA,53.20,3540.69938600,N,13945.65991600,E,1,05,2.87,+0.00,M,00.000,M,,*4C
$GPGGA,53.30,3540.69938600,N,13945.65991600,E,1,05,2.87,+0.00,M,00.000,M,,*4D
$GPGGA,53.40,3540.69938600,N,13945.65991600,E,1,05,2.87,+0.00,M,00.000,M,,*4A
$GPGGA,53.50,3540.69938600,N,13945.65991600,E,1,05,2.87,+0.00,M,00.000,M,,*4B
$GPGGA,53.60,3540.69938600,N,13945.65991600,E,1,05,2.87,+0.00,M,00.000,M,,*48
$GPGGA,53.70,3540.69938600,N,13945.65991600,E,1,05,2.87,+0.00,M,00.000,M,,*49
$GPGGA,53.80,3540.69938600,N,13945.65991600,E,1,05,2.87,+0.00,M,00.000,M,,*46
$GPGGA,53.90,3540.69938600,N,13945.65991600,E,1,05,2.87,+0.00,M,00.000,M,,*47
$GPGGA,54.00,3540.69938600,N,13945.65991600,E,1,05,2.87,+0.00,M,00.000,M,,*49
$GPGGA,54.10,3540.69938600,N,13945.65991600,E,1,05,2.87,+0.00,M,00.000,M,,*48
$GPGGA,54.20,3540.69938600,N,13945.65991600,E,1,05,2.87,+0.00,M,00.000,M,,*4B
$GPGGA,54.30,3540.69938600,N,13945.65991600,E,1,05,2.87,+0.00,M,00.000,M,,*4A
$GPGGA,54.40,3540.69938600,N,13945.65991600,E,1,05,2.87,+0.00,M,00.000,M,,*4D
$GPGGA,54.50,3540.69938600,N,13945.65991600,E,1,05,2.87,+0.00,M,00.000,M,,*4C
$GPGGA,54.60,3540.69938600,N,13945.65991600,E,1,05,2.87,+0.00,M,00.000,M,,*4F
$GPGGA,54.70,3540.69938600,N,13945.65991600,E,1,05,2.87,+0.00,M,00.000,M,,*4E
$GPGGA,54.80,3540.69938600,N,13945.65991600,E,1,05,2.87,+0.00,M,00.000,M,,*41
$GPGGA,54.90,3540.69938600,N,13945.65991600,E,1,05,2.87,+0.00,M,00.000,M,,*40
$GPGGA,55.00,3540.69938600,N,13945.65991600,E,1,05,2.87,+0.00,M,00.000,M,,*48
$GPGGA,55.10,3540.69938600,N,13945.65991600,E,1,05,2.87,+0.00,M,00.000,M,,*49
$GPGGA,55.20,3540.69938600,N,13945.65991600,E,1,05,2.87,+0.00,M,00.000,M,,*4A
$GPGGA,55.30,3540.69938600,N,13945.65991600,E,1,05,2.87,+0.00,M,00.000,M,,*4B
$GPGGA,55.40,3540.69938600,N,13945.65991600,E,1,05,2.87,+0.00,M,00.000,M,,*4C
$GPGGA,55.50,3540.69938600,N,13945.65991600,E,1,05,2.87,+0.00,M,00.000,M,,*4D
$GPGGA,55.60,3540.69938600,N,13945.65991600,E,1,05,2.87,+0.00,M,00.000,M,,*4E
$GPGGA,55.70,3540.69938600,N,13945.65991600,E,1,05,2.87,+0.00,M,00.000,M,,*4F
$GPGGA,55.80,3540.69938600,N,13945.65991600,E,1,05,2.87,+0.00,M,00.000,M,,*40
$GPGGA,55.90,3540.69938600,N,13945.65991600,E,1,05,2.87,+0.00,M,00.000,M,,*41
$GPGGA,56.00,3540.69938600,N,13945.65991600,E,1,05,2.87,+0.00,M,00.000,M,,*4B
$GPGGA,56.10,3540.69938600,N,13945.65991600,E,1,05,2.87,+0.00,M,00.000,M,,*4A
$GPGGA,56.20,3540.69938600,N,13945.65991600,E,1,05,2.87,+0.00,M,00.000,M,,*49
$GPGGA,56.30,3540.69938600,N,13945.65991600,E,1,05,2.87,+0.00,M,00.000,M,,*48
$GPGGA,56.40,3540.69938600,N,13945.65991600,E,1,05,2.87,+0.00,M,00.000,M,,*4F
$GPGGA,56.50,3540.69938600,N,13945.65991600,E,1,05,2.87,+0.00,M,00.000,M,,*4E
$GPGGA,56.60,3540.69938600,N,13945.65991600,E,1,05,2.87,+0.00,M,00.000,M,,*4D
$GPGGA,56.70,3540.69938600,N,13945.65991600,E,1,05,2.87,+0.00,M,00.000,M,,*4C
$GPGGA,56.80,3540.69938600,N,13945.65991600,E,1,05,2.87,+0.00,M,00.000,M,,*43
$GPGGA,56.90,3540.69938600,N,13945.65991600,E,1,05,2.87,+0.00,M,00.000,M,,*42
$GPGGA,57.00,3540.69938600,N,13945.65991600,E,1,05,2.87,+0.00,M,00.000,M,,*4A
$GPGGA,57.10,3540.69938600,N,13945.65991600,E,1,05,2.87,+0.00,M,00.000,M,,*4B
$GPGGA,57.20,3540.69938600,N,13945.65991600,E,1,05,2.87,+0.00,M,00.000,M,,*48
$GPGGA,57.30,3540.69938600,N,13945.65991600,E,1,05,2.87,+0.00,M,00.000,M,,*49
$GPGGA,57.40,3540.69938600,N,13945.65991600,E,1,05,2.87,+0.00,M,00.000,M,,*4E
$GPGGA,57.50,3540.69938600,N,13945.65991600,E,1,05,2.87,+0.00,M,00.000,M,,*4F
$GPGGA,57.60,3540.69938600,N,13945.65991600,E,1,05,2.87,+0.00,M,00.000,M,,*4C
$GPGGA,57.70,3540.69938600,N,13945.65991600,E,1,05,2.87,+0.00,M,00.000,M,,*4D
$GPGGA,57.80,3540.69938600,N,13945.65991600,E,1,05,2.87,+0.00,M,00.000,M,,*42
$GPGGA,57.90,3540.69938600,N,13945.65991600,E,1,05,2.87,+0.00,M,00.000,M,,*43
$GPGGA,58.00,3540.69938600,N,13945.65991600,E,1,05,2.87,+0.00,M,00.000,M,,*45
$GPGGA,58.10,3540.69938600,N,13945.65991600,E,1,05,2.87,+0.00,M,00.000,M,,*44
$GPGGA,58.20,3540.69938600,N,13945.65991600,E,1,05,2.87,+0.00,M,00.000,M,,*47
$GPGGA,58.30,3540.69938600,N,13945.65991600,E,1,05,2.87,+0.00,M,00.000,M,,*46
$GPGGA,58.40,3540.69938600,N,13945.65991600,E,1,05,2.87,+0.00,M,00.000,M,,*41
$GPGGA,58.50,3540.69938600,N,13945.65991600,E,1,05,2.87,+0.00,M,00.000,M,,*40
$GPGGA,58.60,3540.69938600,N,13945.65991600,E,1,05,2.87,+0.00,M,00.000,M,,*43
$GPGGA,58.70,3540.69938600,N,13945.65991600,E,1,05,2.87,+0.00,M,00.000,M,,*42
$GPGGA,58.80,3540.69938600,N,13945.65991600,E,1,05,2.87,+0.00,M,00.000,M,,*4D
$GPGGA,58.90,3540.69938600,N,13945.65991600,E,1,05,2.87,+0.00,M,00.000,M,,*4C
$GPGGA,59.00,3540.69938600,N,13945.65991600,E,1,05,2.87,+0.00,M,00.000,M,,*44
$GPGGA,59.10,3540.69938600,N,13945.65991600,E,1,05,2.87,+0.00,M,00.000,M,,*45
$GPGGA,59.20,3540.69938600,N,13945.65991600,E,1,05,2.87,+0.00,M,00.000,M,,*46
$GPGGA,59.30,3540.69938600,N,13945.65991600,E,1,05,2.87,+0.00,M,00.000,M,,*47
$GPGGA,59.40,3540.69938600,N,13945.65991600,E,1,05,2.87,+0.00,M,00.000,M,,*40
$GPGGA,59.50,3540.69938600,N,13945.65991600,E,1,05,2.87,+0.00,M,00.000,M,,*41
$GPGGA,59.60,3540.69938600,N,13945.65991600,E,1,05,2.87,+0.00,M,00.000,M,,*42
$GPGGA,59.70,3540.69938600,N,13945.65991600,E,1,05,2.87,+0.00,M,00.000,M,,*43
$GPGGA,59.80,3540.69938600,N,13945.65991600,E,1,05,2.87,+0.00,M,00.000,M,,*4C
$GPGGA,59.90,3540.69938600,N,13945.65991600,E,1,05,2.87,+0.00,M,00.000,M,,*4D
$GPGGA,99.90,3540.69938600,N,13945.65991600,E,1,05,2.87,+0.00,M,00.000,M,,*41
$GPGGA,100.00,3540.69938600,N,13945.65991600,E,1,05,2.87,+0.00,M,00.000,M,,*79
$GPGGA,100.10,3540.69938600,N,13945.65991600,E,1,05,2.87,+0.00,M,00.000,M,,*78
$GPGGA,100.20,3540.69938600,N,13945.65991600,E,1,05,2.87,+0.00,M,00.000,M,,*7B
$GPGGA,100.30,3540.69938600,N,13945.65991600,E,1,05,2.87,+0.00,M,00.000,M,,*7A
$GPGGA,100.40,3540.69938600,N,13945.65991600,E,1,05,2.87,+0.00,M,00.000,M,,*7D
$GPGGA,100.50,3540.69938600,N,13945.65991600,E,1,05,2.87,+0.00,M,00.000,M,,*7C
$GPGGA,100.60,3540.69938600,N,13945.65991600,E,1,05,2.87,+0.00,M,00.000,M,,*7F
$GPGGA,100.70,3540.69938600,N,13945.65991600,E,1,05,2.87,+0.00,M,00.000,M,,*7E
$GPGGA,100.80,3540.69938600,N,13945.65991600,E,1,05,2.87,+0.00,M,00.000,M,,*71
$GPGGA,100.90,3540.69938600,N,13945.65991600,E,1,05,2.87,+0.00,M,00.000,M,,*70
$GPGGA,101.00,3540.69938600,N,13945.65991600,E,1,05,2.87,+0.00,M,00.000,M,,*78
$GPGGA,101.10,3540.69938600,N,13945.65991600,E,1,05,2.87,+0.00,M,00.000,M,,*79
$GPGGA,101.20,3540.69938600,N,13945.65991600,E,1,05,2.87,+0.00,M,00.000,M,,*7A
$GPGGA,101.30,3540.69938600,N,13945.65991600,E,1,05,2.87,+0.00,M,00.000,M,,*7B
$GPGGA,101.40,3540.69938600,N,13945.65991600,E,1,05,2.87,+0.00,M,00.000,M,,*7C
$GPGGA,101.50,3540.69938600,N,13945.65991600,E,1,05,2.87,+0.00,M,00.000,M,,*7D
$GPGGA,101.60,3540.69938600,N,13945.65991600,E,1,05,2.87,+0.00,M,00.000,M,,*7E
$GPGGA,101.70,3540.69938600,N,13945.65991600,E,1,05,2.87,+0.00,M,00.000,M,,*7F
$GPGGA,101.80,3540.69938600,N,13945.65991600,E,1,05,2.87,+0.00,M,00.000,M,,*70
$GPGGA,101.90,3540.69938600,N,13945.65991600,E,1,05,2.87,+0.00,M,00.000,M,,*71
$GPGGA,102.00,3540.69938600,N,13945.65991600,E,1,05,2.87,+0.00,M,00.000,M,,*7B
$GPGGA,102.10,3540.69938600,N,13945.65991600,E,1,05,2.87,+0.00,M,00.000,M,,*7A
$GPGGA,102.20,3540.69938600,N,13945.65991600,E,1,05,2.87,+0.00,M,00.000,M,,*79
$GPGGA,102.30,3540.69938600,N,13945.65991600,E,1,05,2.87,+0.00,M,00.000,M,,*78
$GPGGA,102.40,3540.69938600,N,13945.65991600,E,1,05,2.87,+0.00,M,00.000,M,,*7F
$GPGGA,102.50,3540.69938600,N,13945.65991600,E,1,05,2.87,+0.00,M,00.000,M,,*7E
$GPGGA,102.60,3540.69938600,N,13945.65991600,E,1,05,2.87,+0.00,M,00.000,M,,*7D
$GPGGA,102.70,3540.69938600,N,13945.65991600,E,1,05,2.87,+0.00,M,00.000,M,,*7C
$GPGGA,102.80,3540.69938600,N,13945.65991600,E,1,05,2.87,+0.00,M,00.000,M,,*73
$GPGGA,102.90,3540.69938600,N,13945.65991600,E,1,05,2.87,+0.00,M,00.000,M,,*72
$GPGGA,103.00,3540.69938600,N,13945.65991600,E,1,05,2.87,+0.00,M,00.000,M,,*7A
$GPGGA,103.10,3540.69938600,N,13945.65991600,E,1,05,2.87,+0.00,M,00.000,M,,*7B
$GPGGA,103.20,3540.69938600,N,13945.65991600,E,1,05,2.87,+0.00,M,00.000,M,,*78
$GPGGA,103.30,3540.69938600,N,13945.65991600,E,1,05,2.87,+0.00,M,00.000,M,,*79
$GPGGA,103.40,3540.69938600,N,13945.65991600,E,1,05,2.87,+0.00,M,00.000,M,,*7E
$GPGGA,103.50,3540.69938600,N,13945.65991600,E,1,05,2.87,+0.00,M,00.000,M,,*7F
$GPGGA,103.60,3540.69938600,N,13945.65991600,E,1,05,2.87,+0.00,M,00.000,M,,*7C
$GPGGA,103.70,3540.69938600,N,13945.65991600,E,1,05,2.87,+0.00,M,00.000,M,,*7D
$GPGGA,103.80,3540.69938600,N,13945.65991600,E,1,05,2.87,+0.00,M,00.000,M,,*72
$GPGGA,103.90,3540.69938600,N,13945.65991600,E,1,05,2.87,+0.00,M,00.000,M,,*73
$GPGGA,104.00,3540.69938600,N,13945.65991600,E,1,05,2.87,+0.00,M,00.000,M,,*7D
$GPGGA,104.10,3540.69938600,N,13945.65991600,E,1,05,2.87,+0.00,M,00.000,M,,*7C
$GPGGA,104.20,3540.69938600,N,13945.65991600,E,1,05,2.87,+0.00,M,00.000,M,,*7F
$GPGGA,104.30,3540.69938600,N,13945.65991600,E,1,05,2.87,+0.00,M,00.000,M,,*7E
$GPGGA,104.40,3540.69938600,N,13945.65991600,E,1,05,2.87,+0.00,M,00.000,M,,*79
$GPGGA,104.50,3540.69938600,N,13945.65991600,E,1,05,2.87,+0.00,M,00.000,M,,*78
$GPGGA,104.60,3540.69938600,N,13945.65991600,E,1,05,2.87,+0.00,M,00.000,M,,*7B
$GPGGA,104.70,3540.69938600,N,13945.65991600,E,1,05,2.87,+0.00,M,00.000,M,,*7A
$GPGGA,104.80,3540.69938600,N,13945.65991600,E,1,05,2.87,+0.00,M,00.000,M,,*75
$GPGGA,104.90,3540.69938600,N,13945.65991600,E,1,05,2.87,+0.00,M,00.000,M,,*74
$GPGGA,105.00,3540.69938600,N,13945.65991600,E,1,05,2.87,+0.00,M,00.000,M,,*7C
$GPGGA,105.10,3540.69938600,N,13945.65991600,E,1,05,2.87,+0.00,M,00.000,M,,*7D
$GPGGA,105.20,3540.69938600,N,13945.65991600,E,1,05,2.87,+0.00,M,00.000,M,,*7E
$GPGGA,105.30,3540.69938600,N,13945.65991600,E,1,05,2.87,+0.00,M,00.000,M,,*7F
$GPGGA,105.40,3540.69938600,N,13945.65991600,E,1,05,2.87,+0.00,M,00.000,M,,*78
$GPGGA,105.50,3540.69938600,N,13945.65991600,E,1,05,2.87,+0.00,M,00.000,M,,*79
$GPGGA,105.60,3540.69938600,N,13945.65991600,E,1,05,2.87,+0.00,M,00.000,M,,*7A
$GPGGA,105.70,3540.69938600,N,13945.65991600,E,1,05,2.87,+0.00,M,00.000,M,,*7B
$GPGGA,105.80,3540.69938600,N,13945.65991600,E,1,05,2.87,+0.00,M,00.000,M,,*74
$GPGGA,105.90,3540.69938600,N,13945.65991600,E,1,05,2.87,+0.00,M,00.000,M,,*75
$GPGGA,106.00,3540.69938600,N,13945.65991600,E,1,05,2.87,+0.00,M,00.000,M,,*7F
$GPGGA,106.10,3540.69938600,N,13945.65991600,E,1,05,2.87,+0.00,M,00.000,M,,*7E
$GPGGA,106.20,3540.69938600,N,13945.65991600,E,1,05,2.87,+0.00,M,00.000,M,,*7D
$GPGGA,106.30,3540.69938600,N,13945.65991600,E,1,05,2.87,+0.00,M,00.000,M,,*7C
$GPGGA,106.40,3540.69938600,N,13945.65991600,E,1,05,2.87,+0.00,M,00.000,M,,*7B
$GPGGA,106.50,3540.69938600,N,13945.65991600,E,1,05,2.87,+0.00,M,00.000,M,,*7A
$GPGGA,106.60,3540.69938600,N,13945.65991600,E,1,05,2.87,+0.00,M,00.000,M,,*79
$GPGGA,106.70,3540.69938600,N,13945.65991600,E,1,05,2.87,+0.00,M,00.000,M,,*78
$GPGGA,106.80,3540.69938600,N,13945.65991600,E,1,05,2.87,+0.00,M,00.000,M,,*77
$GPGGA,106.90,3540.69938600,N,13945.65991600,E,1,05,2.87,+0.00,M,00.000,M,,*76
$GPGGA,107.00,3540.69938600,N,13945.65991600,E,1,05,2.87,+0.00,M,00.000,M,,*7E
$GPGGA,107.10,3540.69938600,N,13945.65991600,E,1,05,2.87,+0.00,M,00.000,M,,*7F
$GPGGA,107.20,3540.69938600,N,13945.65991600,E,1,05,2.87,+0.00,M,00.000,M,,*7C
$GPGGA,107.30,3540.69938600,N,13945.65991600,E,1,05,2.87,+0.00,M,00.000,M,,*7D
$GPGGA,107.40,3540.69938600,N,13945.65991600,E,1,05,2.87,+0.00,M,00.000,M,,*7A
$GPGGA,107.50,3540.69938600,N,13945.65991600,E,1,05,2.87,+0.00,M,00.000,M,,*7B
$GPGGA,107.60,3540.69938600,N,13945.65991600,E,1,05,2.87,+0.00,M,00.000,M,,*78
$GPGGA,107.70,3540.69938600,N,13945.65991600,E,1,05,2.87,+0.00,M,00.000,M,,*79
$GPGGA,107.80,3540.69938600,N,13945.65991600,E,1,05,2.87,+0.00,M,00.000,M,,*76
$GPGGA,107.90,3540.69938600,N,13945.65991600,E,1,05,2.87,+0.00,M,00.000,M,,*77
$GPGGA,108.00,3540.69938600,N,13945.65991600,E,1,05,2.87,+0.00,M,00.000,M,,*71
$GPGGA,108.10,3540.69938600,N,13945.65991600,E,1,05,2.87,+0.00,M,00.000,M,,*70
$GPGGA,108.20,3540.69938600,N,13945.65991600,E,1,05,2.87,+0.00,M,00.000,M,,*73
$GPGGA,108.30,3540.69938600,N,13945.65991600,E,1,05,2.87,+0.00,M,00.000,M,,*72
$GPGGA,108.40,3540.69938600,N,13945.65991600,E,1,05,2.87,+0.00,M,00.000,M,,*75
$GPGGA,108.50,3540.69938600,N,13945.65991600,E,1,05,2.87,+0.00,M,00.000,M,,*74
$GPGGA,108.60,3540.69938600,N,13945.65991600,E,1,05,2.87,+0.00,M,00.000,M,,*77
$GPGGA,108.70,3540.69938600,N,13945.65991600,E,1,05,2.87,+0.00,M,00.000,M,,*76
$GPGGA,108.80,3540.69938600,N,13945.65991600,E,1,05,2.87,+0.00,M,00.000,M,,*79
$GPGGA,108.90,3540.69938600,N,13945.65991600,E,1,05,2.87,+0.00,M,00.000,M,,*78
$GPGGA,109.00,3540.69938600,N,13945.65991600,E,1,05,2.87,+0.00,M,00.000,M,,*70
$GPGGA,109.10,3540.69938600,N,13945.65991600,E,1,05,2.87,+0.00,M,00.000,M,,*71
$GPGGA,109.20,3540.69938600,N,13945.65991600,E,1,05,2.87,+0.00,M,00.000,M,,*72
$GPGGA,109.30,3540.69938600,N,13945.65991600,E,1,05,2.87,+0.00,M,00.000,M,,*73
$GPGGA,109.40,3540.69938600,N,13945.65991600,E,1,05,2.87,+0.00,M,00.000,M,,*74
$GPGGA,109.50,3540.69938600,N,13945.65991600,E,1,05,2.87,+0.00,M,00.000,M,,*75
$GPGGA,109.60,3540.69938600,N,13945.65991600,E,1,05,2.87,+0.00,M,00.000,M,,*76
$GPGGA,109.70,3540.69938600,N,13945.65991600,E,1,05,2.87,+0.00,M,00.000,M,,*77
$GPGGA,109.80,3540.69938600,N,13945.65991600,E,1,05,2.87,+0.00,M,00.000,M,,*78
$GPGGA,109.90,3540.69938600,N,13945.65991600,E,1,05,2.87,+0.00,M,00.000,M,,*79
$GPGGA,110.00,3540.69938600,N,13945.65991600,E,1,05,2.87,+0.00,M,00.000,M,,*78
$GPGGA,110.10,3540.69938600,N,13945.65991600,E,1,05,2.87,+0.00,M,00.000,M,,*79
$GPGGA,110.20,3540.69938600,N,13945.65991600,E,1,05,2.87,+0.00,M,00.000,M,,*7A
$GPGGA,110.30,3540.69938600,N,13945.65991600,E,1,05,2.87,+0.00,M,00.000,M,,*7B
$GPGGA,110.40,3540.69938600,N,13945.65991600,E,1,05,2.87,+0.00,M,00.000,M,,*7C
$GPGGA,110.50,3540.69938600,N,13945.65991600,E,1,05,2.87,+0.00,M,00.000,M,,*7D
$GPGGA,110.60,3540.69938600,N,13945.65991600,E,1,05,2.87,+0.00,M,00.000,M,,*7E
$GPGGA,110.70,3540.69938600,N,13945.65991600,E,1,05,2.87,+0.00,M,00.000,M,,*7F
$GPGGA,110.80,3540.69938600,N,13945.65991600,E,1,05,2.87,+0.00,M,00.000,M,,*70
$GPGGA,110.90,3540.69938600,N,13945.65991600,E,1,05,2.87,+0.00,M,00.000,M,,*71
$GPGGA,111.00,3540.69938600,N,13945.65991600,E,1,05,2.87,+0.00,M,00.000,M,,*79
$GPGGA,111.10,3540.69938600,N,13945.65991600,E,1,05,2.87,+0.00,M,00.000,M,,*78
$GPGGA,111.20,3540.69938600,N,13945.65991600,E,1,05,2.87,+0.00,M,00.000,M,,*7B
$GPGGA,111.30,3540.69938600,N,13945.65991600,E,1,05,2.87,+0.00,M,00.000,M,,*7A
$GPGGA,111.40,3540.69938600,N,13945.65991600,E,1,05,2.87,+0.00,M,00.000,M,,*7D
$GPGGA,111.50,3540.69938600,N,13945.65991600,E,1,05,2.87,+0.00,M,00.000,M,,*7C
$GPGGA,111.60,3540.69938600,N,13945.65991600,E,1,05,2.87,+0.00,M,00.000,M,,*7F
$GPGGA,111.70,3540.69938600,N,13945.65991600,E,1,05,2.87,+0.00,M,00.000,M,,*7E
$GPGGA,111.80,3540.69938600,N,13945.65991600,E,1,05,2.87,+0.00,M,00.000,M,,*71
$GPGGA,111.90,3540.69938600,N,13945.65991600,E,1,05,2.87,+0.00,M,00.000,M,,*70
$GPGGA,112.00,3540.69938600,N,13945.65991600,E,1,05,2.87,+0.00,M,00.000,M,,*7A
$GPGGA,112.10,3540.69938600,N,13945.65991600,E,1,05,2.87,+0.00,M,00.000,M,,*7B
$GPGGA,112.20,3540.69938600,N,13945.65991600,E,1,05,2.87,+0.00,M,00.000,M,,*78
$GPGGA,112.30,3540.69938600,N,13945.65991600,E,1,05,2.87,+0.00,M,00.000,M,,*79
$GPGGA,112.40,3540.69938600,N,13945.65991600,E,1,05,2.87,+0.00,M,00.000,M,,*7E
$GPGGA,112.50,3540.69938600,N,13945.65991600,E,1,05,2.87,+0.00,M,00.000,M,,*7F
$GPGGA,112.60,3540.69938600,N,13945.65991600,E,1,05,2.87,+0.00,M,00.000,M,,*7C
$GPGGA,112.70,3540.69938600,N,13945.65991600,E,1,05,2.87,+0.00,M,00.000,M,,*7D
$GPGGA,112.80,3540.69938600,N,13945.65991600,E,1,05,2.87,+0.00,M,00.000,M,,*72
$GPGGA,112.90,3540.69938600,N,13945.65991600,E,1,05,2.87,+0.00,M,00.000,M,,*73
$GPGGA,113.00,3540.69938600,N,13945.65991600,E,1,05,2.87,+0.00,M,00.000,M,,*7B
$GPGGA,113.10,3540.69938600,N,13945.65991600,E,1,05,2.87,+0.00,M,00.000,M,,*7A
$GPGGA,113.20,3540.69938600,N,13945.65991600,E,1,05,2.87,+0.00,M,00.000,M,,*79
$GPGGA,113.30,3540.69938600,N,13945.65991600,E,1,05,2.87,+0.00,M,00.000,M,,*78
$GPGGA,113.40,3540.69938600,N,13945.65991600,E,1,05,2.87,+0.00,M,00.000,M,,*7F
$GPGGA,113.50,3540.69938600,N,13945.65991600,E,1,05,2.87,+0.00,M,00.000,M,,*7E
$GPGGA,113.60,3540.69938600,N,13945.65991600,E,1,05,2.87,+0.00,M,00.000,M,,*7D
$GPGGA,113.70,3540.69938600,N,13945.65991600,E,1,05,2.87,+0.00,M,00.000,M,,*7C
$GPGGA,113.80,3540.69938600,N,13945.65991600,E,1,05,2.87,+0.00,M,00.000,M,,*73
$GPGGA,113.90,3540.69938600,N,13945.65991600,E,1,05,2.87,+0.00,M,00.000,M,,*72
$GPGGA,114.00,3540.69938600,N,13945.65991600,E,1,05,2.87,+0.00,M,00.000,M,,*7C
$GPGGA,114.10,3540.69938600,N,13945.65991600,E,1,05,2.87,+0.00,M,00.000,M,,*7D
$GPGGA,114.20,3540.69938600,N,13945.65991600,E,1,05,2.87,+0.00,M,00.000,M,,*7E
$GPGGA,114.30,3540.69938600,N,13945.65991600,E,1,05,2.87,+0.00,M,00.000,M,,*7F
$GPGGA,114.40,3540.69938600,N,13945.65991600,E,1,05,2.87,+0.00,M,00.000,M,,*78
$GPGGA,114.50,3540.69938600,N,13945.65991600,E,1,05,2.87,+0.00,M,00.000,M,,*79
$GPGGA,114.60,3540.69938600,N,13945.65991600,E,1,05,2.87,+0.00,M,00.000,M,,*7A
$GPGGA,114.70,3540.69938600,N,13945.65991600,E,1,05,2.87,+0.00,M,00.000,M,,*7B
$GPGGA,114.80,3540.69938600,N,13945.65991600,E,1,05,2.87,+0.00,M,00.000,M,,*74
$GPGGA,114.90,3540.69938600,N,13945.65991600,E,1,05,2.87,+0.00,M,00.000,M,,*75
$GPGGA,115.00,3540.69938600,N,13945.65991600,E,1,05,2.87,+0.00,M,00.000,M,,*7D
$GPGGA,115.10,3540.69938600,N,13945.65991600,E,1,05,2.87,+0.00,M,00.000,M,,*7C
$GPGGA,115.20,3540.69938600,N,13945.65991600,E,1,05,2.87,+0.00,M,00.000,M,,*7F
$GPGGA,115.30,3540.69938600,N,13945.65991600,E,1,05,2.87,+0.00,M,00.000,M,,*7E
$GPGGA,115.40,3540.69938600,N,13945.65991600,E,1,05,2.87,+0.00,M,00.000,M,,*79
$GPGGA,115.50,3540.69938600,N,13945.65991600,E,1,05,2.87,+0.00,M,00.000,M,,*78
$GPGGA,115.60,3540.69938600,N,13945.65991600,E,1,05,2.87,+0.00,M,00.000,M,,*7B
$GPGGA,115.70,3540.69938600,N,13945.65991600,E,1,05,2.87,+0.00,M,00.000,M,,*7A
$GPGGA,115.80,3540.69938600,N,13945.65991600,E,1,05,2.87,+0.00,M,00.000,M,,*75
$GPGGA,115.90,3540.69938600,N,13945.65991600,E,1,05,2.87,+0.00,M,00.000,M,,*74
$GPGGA,116.00,3540.69938600,N,13945.65991600,E,1,05,2.87,+0.00,M,00.000,M,,*7E
$GPGGA,116.10,3540.69938600,N,13945.65991600,E,1,05,2.87,+0.00,M,00.000,M,,*7F
$GPGGA,116.20,3540.69938600,N,13945.65991600,E,1,05,2.87,+0.00,M,00.000,M,,*7C
$GPGGA,116.30,3540.69938600,N,13945.65991600,E,1,05,2.87,+0.00,M,00.000,M,,*7D
$GPGGA,116.40,3540.69938600,N,13945.65991600,E,1,05,2.87,+0.00,M,00.000,M,,*7A
$GPGGA,116.50,3540.69938600,N,13945.65991600,E,1,05,2.87,+0.00,M,00.000,M,,*7B
$GPGGA,116.60,3540.69938600,N,13945.65991600,E,1,05,2.87,+0.00,M,00.000,M,,*78
